[
  {"id":"tokyo-dome","name":"東京ドーム","address":"東京都文京区後楽1-3-61","type":"ドーム","region":"関東","prefecture":"東京都","nearestStation":"水道橋駅 / 後楽園駅","nearestShinkansen":"東京駅","nearestAirport":"羽田空港","latitude":35.7056,"longitude":139.7519,"capacity":55000},
  {"id":"kyocera-dome","name":"京セラドーム大阪","address":"大阪府大阪市西区千代崎3-中2-1","type":"ドーム","region":"近畿","prefecture":"大阪府","nearestStation":"ドーム前千代崎駅","nearestShinkansen":"新大阪駅","nearestAirport":"伊丹空港 / 関空","latitude":34.6694,"longitude":135.4762,"capacity":55000},
  {"id":"vantelin-dome","name":"バンテリンドーム ナゴヤ","address":"愛知県名古屋市東区大幸南1-1-1","type":"ドーム","region":"中部","prefecture":"愛知県","nearestStation":"ナゴヤドーム前矢田駅","nearestShinkansen":"名古屋駅","nearestAirport":"中部国際空港","latitude":35.186,"longitude":136.9474,"capacity":49427},
  {"id":"paypay-dome","name":"みずほ PayPayドーム福岡","address":"福岡県福岡市中央区地行浜2-2-2","type":"ドーム","region":"九州","prefecture":"福岡県","nearestStation":"唐人町駅","nearestShinkansen":"博多駅","nearestAirport":"福岡空港","latitude":33.5953,"longitude":130.3622,"capacity":40178},
  {"id":"sapporo-dome","name":"札幌ドーム","address":"北海道札幌市豊平区羊ケ丘1","type":"ドーム","region":"北海道","prefecture":"北海道","nearestStation":"福住駅","nearestShinkansen":"(札幌駅)","nearestAirport":"新千歳空港","latitude":43.015,"longitude":141.4098,"capacity":53796},
  {"id":"belluna-dome","name":"ベルーナドーム","address":"埼玉県所沢市上山口2135","type":"ドーム","region":"関東","prefecture":"埼玉県","nearestStation":"西武球場前駅","nearestShinkansen":"東京駅 / 大宮駅","nearestAirport":"羽田空港","latitude":35.7674,"longitude":139.4218,"capacity":33556},
  {"id":"saitama-super-arena","name":"さいたまスーパーアリーナ","address":"埼玉県さいたま市中央区新都心8","type":"アリーナ","region":"関東","prefecture":"埼玉県","nearestStation":"さいたま新都心駅","nearestShinkansen":"大宮駅","nearestAirport":"羽田空港","latitude":35.8949,"longitude":139.6311,"capacity":37000},
  {"id":"yokohama-arena","name":"横浜アリーナ","address":"神奈川県横浜市港北区新横浜3-10","type":"アリーナ","region":"関東","prefecture":"神奈川県","nearestStation":"新横浜駅","nearestShinkansen":"新横浜駅","nearestAirport":"羽田空港","latitude":35.5094,"longitude":139.6172,"capacity":17000},
  {"id":"k-arena","name":"Kアリーナ横浜","address":"神奈川県横浜市西区みなとみらい6-2-14","type":"アリーナ","region":"関東","prefecture":"神奈川県","nearestStation":"横浜駅 / みなとみらい駅","nearestShinkansen":"新横浜駅","nearestAirport":"羽田空港","latitude":35.4621,"longitude":139.6326,"capacity":20000},
  {"id":"ariake-arena","name":"有明アリーナ","address":"東京都江東区有明1-11-1","type":"アリーナ","region":"関東","prefecture":"東京都","nearestStation":"有明テニスの森駅","nearestShinkansen":"東京駅","nearestAirport":"羽田空港","latitude":35.6352,"longitude":139.7887,"capacity":15000},
  {"id":"yoyogi","name":"国立代々木競技場 第一体育館","address":"東京都渋谷区神南2-1-1","type":"アリーナ","region":"関東","prefecture":"東京都","nearestStation":"原宿駅 / 渋谷駅","nearestShinkansen":"東京駅 / 品川駅","nearestAirport":"羽田空港","latitude":35.6673,"longitude":139.6994,"capacity":13291},
  {"id":"pia-arena","name":"ぴあアリーナMM","address":"神奈川県横浜市西区みなとみらい3-2-2","type":"アリーナ","region":"関東","prefecture":"神奈川県","nearestStation":"みなとみらい駅 / 桜木町駅","nearestShinkansen":"新横浜駅","nearestAirport":"羽田空港","latitude":35.4572,"longitude":139.6369,"capacity":12141},
  {"id":"budokan","name":"日本武道館","address":"東京都千代田区北の丸公園2-3","type":"アリーナ","region":"関東","prefecture":"東京都","nearestStation":"九段下駅","nearestShinkansen":"東京駅","nearestAirport":"羽田空港","latitude":35.6932,"longitude":139.7499,"capacity":14471},
  {"id":"makuhari-messe","name":"幕張メッセ 国際展示場","address":"千葉県千葉市美浜区中瀬2-1","type":"アリーナ","region":"関東","prefecture":"千葉県","nearestStation":"海浜幕張駅","nearestShinkansen":"東京駅","nearestAirport":"成田空港 / 羽田空港","latitude":35.6483,"longitude":140.0342,"capacity":15000},
  {"id":"osaka-jo-hall","name":"大阪城ホール","address":"大阪府大阪市中央区大阪城3-1","type":"アリーナ","region":"近畿","prefecture":"大阪府","nearestStation":"大阪城公園駅","nearestShinkansen":"新大阪駅","nearestAirport":"伊丹空港","latitude":34.6873,"longitude":135.5262,"capacity":16000},
  {"id":"world-kinen","name":"ワールド記念ホール","address":"兵庫県神戸市中央区港島中町6-12-2","type":"アリーナ","region":"近畿","prefecture":"兵庫県","nearestStation":"市民広場駅","nearestShinkansen":"新神戸駅","nearestAirport":"神戸空港","latitude":34.6668,"longitude":135.2131,"capacity":8000},
  {"id":"gaishi-hall","name":"日本ガイシホール","address":"愛知県名古屋市南区東又兵ヱ町5-1-16","type":"アリーナ","region":"中部","prefecture":"愛知県","nearestStation":"笠寺駅","nearestShinkansen":"名古屋駅","nearestAirport":"中部国際空港","latitude":35.0969,"longitude":136.9367,"capacity":10000},
  {"id":"marine-messe","name":"マリンメッセ福岡","address":"福岡県福岡市博多区沖浜町7-1","type":"アリーナ","region":"九州","prefecture":"福岡県","nearestStation":"呉服町駅 / 博多駅","nearestShinkansen":"博多駅","nearestAirport":"福岡空港","latitude":33.6062,"longitude":130.4015,"capacity":15000},
  {"id":"sekisui-super","name":"セキスイハイムスーパーアリーナ","address":"宮城県宮城郡利府町菅谷字舘40-1","type":"アリーナ","region":"東北","prefecture":"宮城県","nearestStation":"利府駅(シャトルバス有)","nearestShinkansen":"仙台駅","nearestAirport":"仙台空港","latitude":38.3469,"longitude":140.9492,"capacity":7063},
  {"id":"makomanai","name":"真駒内セキスイハイムアイスアリーナ","address":"北海道札幌市南区真駒内公園1-1","type":"アリーナ","region":"北海道","prefecture":"北海道","nearestStation":"真駒内駅","nearestShinkansen":"(札幌駅)","nearestAirport":"新千歳空港","latitude":43.0103,"longitude":141.3553,"capacity":10024},
  {"id":"hiroshima-green","name":"広島グリーンアリーナ","address":"広島県広島市中区基町4-1","type":"アリーナ","region":"中国","prefecture":"広島県","nearestStation":"県庁前駅 / 紙屋町西電停","nearestShinkansen":"広島駅","nearestAirport":"広島空港","latitude":34.4011,"longitude":132.4567,"capacity":10000}
]
